[
  {
    "hotelLocation": {
      "lat": 39.6542,
      "long": 66.9597
    },
    "hotelPrice": 0,
    "hotelToCity": "Samarqand",
    "hotelName": "Registan Plaza",
    "hotelRating": 4.5,
    "hotelFeatures": [
      "wifi",
      "pool",
      "restaurant",
      "bar",
      "parking"
    ],
    "hotelCheckIn": "14:00",
    "hotelCheckOut": "12:00"
  },
  {
    "hotelLocation": {
      "lat": 39.6421,
      "long": 66.9812
    },
    "hotelPrice": 0,
    "hotelToCity": "Samarqand",
    "hotelName": "Savitsky Plaza",
    "hotelRating": 5,
    "hotelFeatures": [
      "luxury",
      "spa",
      "gym",
      "free-wifi"
    ],
    "hotelCheckIn": "15:00",
    "hotelCheckOut": "11:00"
  },
  {
    "hotelLocation": {
      "lat": 39.6501,
      "long": 66.962
    },
    "hotelPrice": 0,
    "hotelToCity": "Samarqand",
    "hotelName": "Diyora Hotel",
    "hotelRating": 3.8,
    "hotelFeatures": [
      "breakfast",
      "central",
      "clean"
    ],
    "hotelCheckIn": "14:00",
    "hotelCheckOut": "12:00"
  },
  {
    "hotelLocation": {
      "lat": 39.648,
      "long": 66.951
    },
    "hotelPrice": 0,
    "hotelToCity": "Samarqand",
    "hotelName": "Grand Samarkand Superior",
    "hotelRating": 4.2,
    "hotelFeatures": [
      "classic-design",
      "pool",
      "sauna"
    ],
    "hotelCheckIn": "14:00",
    "hotelCheckOut": "12:00"
  },
  {
    "hotelLocation": {
      "lat": 39.661,
      "long": 66.979
    },
    "hotelPrice": 0,
    "hotelToCity": "Samarqand",
    "hotelName": "Bibikhanum Hotel",
    "hotelRating": 4,
    "hotelFeatures": [
      "terrace",
      "historic-view",
      "oriental"
    ],
    "hotelCheckIn": "13:00",
    "hotelCheckOut": "11:30"
  },
  {
    "hotelLocation": {
      "lat": 39.635,
      "long": 66.968
    },
    "hotelPrice": 0,
    "hotelToCity": "Samarqand",
    "hotelName": "Emir Han Hotel",
    "hotelRating": 4.1,
    "hotelFeatures": [
      "pool",
      "parking",
      "family-friendly"
    ],
    "hotelCheckIn": "14:00",
    "hotelCheckOut": "12:00"
  },
  {
    "hotelLocation": {
      "lat": 39.6495,
      "long": 66.9705
    },
    "hotelPrice": 0,
    "hotelToCity": "Samarqand",
    "hotelName": "L'Argamak Hotel",
    "hotelRating": 4.7,
    "hotelFeatures": [
      "boutique",
      "garden",
      "quiet"
    ],
    "hotelCheckIn": "14:00",
    "hotelCheckOut": "12:00"
  },
  {
    "hotelLocation": {
      "lat": 39.645,
      "long": 66.94
    },
    "hotelPrice": 0,
    "hotelToCity": "Samarqand",
    "hotelName": "Hotel Dilimah",
    "hotelRating": 4.3,
    "hotelFeatures": [
      "modern",
      "business-center",
      "wifi"
    ],
    "hotelCheckIn": "14:00",
    "hotelCheckOut": "12:00"
  },
  {
    "hotelLocation": {
      "lat": 39.652,
      "long": 66.955
    },
    "hotelPrice": 0,
    "hotelToCity": "Samarqand",
    "hotelName": "Movenpick Samarkand",
    "hotelRating": 5,
    "hotelFeatures": [
      "luxury",
      "brand",
      "spa",
      "pool"
    ],
    "hotelCheckIn": "15:00",
    "hotelCheckOut": "12:00"
  },
  {
    "hotelLocation": {
      "lat": 39.64,
      "long": 66.95
    },
    "hotelPrice": 0,
    "hotelToCity": "Samarqand",
    "hotelName": "Ideal Hotel",
    "hotelRating": 3.5,
    "hotelFeatures": [
      "budget",
      "friendly-staff",
      "wifi"
    ],
    "hotelCheckIn": "14:00",
    "hotelCheckOut": "12:00"
  },
  {
    "hotelLocation": {
      "lat": 41.3165,
      "long": 69.2736
    },
    "hotelPrice": 0,
    "hotelToCity": "Tashkent",
    "hotelName": "Hyatt Regency Tashkent",
    "hotelRating": 5,
    "hotelFeatures": [
      "pool",
      "spa",
      "gym",
      "central"
    ],
    "hotelCheckIn": "14:00",
    "hotelCheckOut": "12:00"
  },
  {
    "hotelLocation": {
      "lat": 41.3122,
      "long": 69.2541
    },
    "hotelPrice": 0,
    "hotelToCity": "Tashkent",
    "hotelName": "Hilton Tashkent City",
    "hotelRating": 5,
    "hotelFeatures": [
      "sky-bar",
      "pool",
      "modern"
    ],
    "hotelCheckIn": "14:00",
    "hotelCheckOut": "12:00"
  },
  {
    "hotelLocation": {
      "lat": 41.321,
      "long": 69.281
    },
    "hotelPrice": 0,
    "hotelToCity": "Tashkent",
    "hotelName": "Wyndham Tashkent",
    "hotelRating": 4.5,
    "hotelFeatures": [
      "classic",
      "indoor-pool",
      "restaurant"
    ],
    "hotelCheckIn": "14:00",
    "hotelCheckOut": "12:00"
  },
  {
    "hotelLocation": {
      "lat": 41.311,
      "long": 69.269
    },
    "hotelPrice": 0,
    "hotelToCity": "Tashkent",
    "hotelName": "Lotte City Hotel Tashkent Palace",
    "hotelRating": 4.4,
    "hotelFeatures": [
      "historic",
      "pool",
      "theater-view"
    ],
    "hotelCheckIn": "14:00",
    "hotelCheckOut": "12:00"
  },
  {
    "hotelLocation": {
      "lat": 41.285,
      "long": 69.262
    },
    "hotelPrice": 0,
    "hotelToCity": "Tashkent",
    "hotelName": "Courtyard by Marriott",
    "hotelRating": 4.6,
    "hotelFeatures": [
      "modern",
      "business",
      "gym"
    ],
    "hotelCheckIn": "15:00",
    "hotelCheckOut": "12:00"
  },
  {
    "hotelLocation": {
      "lat": 41.334,
      "long": 69.284
    },
    "hotelPrice": 0,
    "hotelToCity": "Tashkent",
    "hotelName": "Radisson Blu Hotel",
    "hotelRating": 4.3,
    "hotelFeatures": [
      "garden",
      "pool",
      "quiet"
    ],
    "hotelCheckIn": "14:00",
    "hotelCheckOut": "12:00"
  },
  {
    "hotelLocation": {
      "lat": 41.289,
      "long": 69.252
    },
    "hotelPrice": 0,
    "hotelToCity": "Tashkent",
    "hotelName": "Ichan Qala Premium",
    "hotelRating": 4.7,
    "hotelFeatures": [
      "oriental",
      "villas",
      "pool"
    ]
  },
  {
    "hotelLocation": {
      "lat": 41.318,
      "long": 69.278
    },
    "hotelPrice": 0,
    "hotelToCity": "Tashkent",
    "hotelName": "City Palace Hotel",
    "hotelRating": 4,
    "hotelFeatures": [
      "classic",
      "central",
      "large-rooms"
    ]
  },
  {
    "hotelLocation": {
      "lat": 41.325,
      "long": 69.272
    },
    "hotelPrice": 0,
    "hotelToCity": "Tashkent",
    "hotelName": "InterContinental Tashkent",
    "hotelRating": 5,
    "hotelFeatures": [
      "luxury",
      "new",
      "top-tier"
    ]
  },
  {
    "hotelLocation": {
      "lat": 41.3105,
      "long": 69.2825
    },
    "hotelPrice": 0,
    "hotelToCity": "Tashkent",
    "hotelName": "Hampton by Hilton",
    "hotelRating": 4.2,
    "hotelFeatures": [
      "modern",
      "wifi",
      "clean-beds"
    ]
  },
  {
    "hotelLocation": {
      "lat": 39.7622,
      "long": 64.4215
    },
    "hotelPrice": 0,
    "hotelToCity": "Buxoro",
    "hotelName": "Sahid Zarafshon",
    "hotelRating": 4.1,
    "hotelFeatures": [
      "large",
      "pool",
      "events"
    ]
  },
  {
    "hotelLocation": {
      "lat": 39.773,
      "long": 64.415
    },
    "hotelPrice": 0,
    "hotelToCity": "Buxoro",
    "hotelName": "Mercure Bukhara Old Town",
    "hotelRating": 4.8,
    "hotelFeatures": [
      "modern-oriental",
      "spa",
      "terrace"
    ]
  },
  {
    "hotelLocation": {
      "lat": 39.7747,
      "long": 64.4286
    },
    "hotelPrice": 0,
    "hotelToCity": "Buxoro",
    "hotelName": "Wyndham Bukhara",
    "hotelRating": 4.3,
    "hotelFeatures": [
      "gym",
      "wifi",
      "business"
    ]
  },
  {
    "hotelLocation": {
      "lat": 39.776,
      "long": 64.416
    },
    "hotelPrice": 0,
    "hotelToCity": "Buxoro",
    "hotelName": "Hotel Omar Khayyam",
    "hotelRating": 3.9,
    "hotelFeatures": [
      "traditional-courtyard",
      "central",
      "history"
    ]
  },
  {
    "hotelLocation": {
      "lat": 39.765,
      "long": 64.425
    },
    "hotelPrice": 0,
    "hotelToCity": "Buxoro",
    "hotelName": "Bukhara Palace",
    "hotelRating": 3.5,
    "hotelFeatures": [
      "large-hotel",
      "classic",
      "pool"
    ]
  },
  {
    "hotelLocation": {
      "lat": 39.7725,
      "long": 64.42
    },
    "hotelPrice": 0,
    "hotelToCity": "Buxoro",
    "hotelName": "Lyabi House Hotel",
    "hotelRating": 4.2,
    "hotelFeatures": [
      "old-city",
      "authentic",
      "breakfast"
    ]
  },
  {
    "hotelLocation": {
      "lat": 39.775,
      "long": 64.423
    },
    "hotelPrice": 0,
    "hotelToCity": "Buxoro",
    "hotelName": "Malika Bukhara",
    "hotelRating": 3.8,
    "hotelFeatures": [
      "cozy",
      "wifi",
      "friendly"
    ]
  },
  {
    "hotelLocation": {
      "lat": 39.771,
      "long": 64.414
    },
    "hotelPrice": 0,
    "hotelToCity": "Buxoro",
    "hotelName": "K.Komil Hotel",
    "hotelRating": 4.5,
    "hotelFeatures": [
      "antique-style",
      "boutique",
      "traditional"
    ]
  },
  {
    "hotelLocation": {
      "lat": 39.774,
      "long": 64.418
    },
    "hotelPrice": 0,
    "hotelToCity": "Buxoro",
    "hotelName": "Amulet Hotel",
    "hotelRating": 4,
    "hotelFeatures": [
      "madrasah-style",
      "historic",
      "central"
    ]
  },
  {
    "hotelLocation": {
      "lat": 41.3812,
      "long": 60.3621
    },
    "hotelPrice": 0,
    "hotelToCity": "Xiva",
    "hotelName": "Farovon Khiva",
    "hotelRating": 5,
    "hotelFeatures": [
      "spa",
      "luxury",
      "pool",
      "conference"
    ],
    "hotelCheckIn": "14:00",
    "hotelCheckOut": "12:00"
  },
  {
    "hotelLocation": {
      "lat": 41.3784,
      "long": 60.3602
    },
    "hotelPrice": 0,
    "hotelToCity": "Xiva",
    "hotelName": "Arkanchi Hotel",
    "hotelRating": 3.6,
    "hotelFeatures": [
      "terrace",
      "fortress-view",
      "wifi"
    ],
    "hotelCheckIn": "13:00",
    "hotelCheckOut": "11:00"
  },
  {
    "hotelLocation": {
      "lat": 41.375,
      "long": 60.365
    },
    "hotelPrice": 0,
    "hotelToCity": "Xiva",
    "hotelName": "Asia Khiva",
    "hotelRating": 3.8,
    "hotelFeatures": [
      "large-groups",
      "pool",
      "restaurant"
    ],
    "hotelCheckIn": "14:00",
    "hotelCheckOut": "12:00"
  },
  {
    "hotelLocation": {
      "lat": 41.377,
      "long": 60.358
    },
    "hotelPrice": 0,
    "hotelToCity": "Xiva",
    "hotelName": "Orient Star Khiva",
    "hotelRating": 4,
    "hotelFeatures": [
      "madrasah-stay",
      "unique",
      "central"
    ],
    "hotelCheckIn": "14:00",
    "hotelCheckOut": "12:00"
  },
  {
    "hotelLocation": {
      "lat": 41.379,
      "long": 60.361
    },
    "hotelPrice": 0,
    "hotelToCity": "Xiva",
    "hotelName": "Malika Khiva",
    "hotelRating": 3.7,
    "hotelFeatures": [
      "wooden-carving",
      "traditional",
      "cozy"
    ],
    "hotelCheckIn": "14:00",
    "hotelCheckOut": "12:00"
  },
  {
    "hotelLocation": {
      "lat": 41.378,
      "long": 60.3595
    },
    "hotelPrice": 0,
    "hotelToCity": "Xiva",
    "hotelName": "Khiva Ichan Qala Hotel",
    "hotelRating": 4.2,
    "hotelFeatures": [
      "inside-fortress",
      "historic",
      "breakfast"
    ],
    "hotelCheckIn": "14:00",
    "hotelCheckOut": "12:00"
  },
  {
    "hotelLocation": {
      "lat": 41.3795,
      "long": 60.3605
    },
    "hotelPrice": 0,
    "hotelToCity": "Xiva",
    "hotelName": "Zukhro Boutique",
    "hotelRating": 4.4,
    "hotelFeatures": [
      "family-run",
      "clean",
      "view"
    ],
    "hotelCheckIn": "14:00",
    "hotelCheckOut": "12:00"
  },
  {
    "hotelLocation": {
      "lat": 41.3785,
      "long": 60.3575
    },
    "hotelPrice": 0,
    "hotelToCity": "Xiva",
    "hotelName": "Shaherezada Hotel",
    "hotelRating": 3.5,
    "hotelFeatures": [
      "budget",
      "friendly",
      "central"
    ],
    "hotelCheckIn": "14:00",
    "hotelCheckOut": "12:00"
  },
  {
    "hotelLocation": {
      "lat": 41.38,
      "long": 60.363
    },
    "hotelPrice": 0,
    "hotelToCity": "Xiva",
    "hotelName": "Polvon Qori Hotel",
    "hotelRating": 3.9,
    "hotelFeatures": [
      "madrasah",
      "traditional",
      "quiet"
    ],
    "hotelCheckIn": "14:00",
    "hotelCheckOut": "12:00"
  },
  {
    "hotelLocation": {
      "lat": 41.382,
      "long": 60.364
    },
    "hotelPrice": 0,
    "hotelToCity": "Xiva",
    "hotelName": "Mussala Hotel",
    "hotelRating": 3.8,
    "hotelFeatures": [
      "new",
      "modern-rooms",
      "wifi"
    ],
    "hotelCheckIn": "14:00",
    "hotelCheckOut": "12:00"
  },
  {
    "hotelLocation": {
      "lat": 42.4641,
      "long": 59.6065
    },
    "hotelPrice": 0,
    "hotelToCity": "Nukus",
    "hotelName": "Jipek Joli",
    "hotelRating": 3.5,
    "hotelFeatures": [
      "museum-nearby",
      "wifi",
      "traditional"
    ],
    "hotelCheckIn": "14:00",
    "hotelCheckOut": "12:00"
  },
  {
    "hotelLocation": {
      "lat": 42.4598,
      "long": 59.6122
    },
    "hotelPrice": 0,
    "hotelToCity": "Nukus",
    "hotelName": "Ratmina Hotel",
    "hotelRating": 3.4,
    "hotelFeatures": [
      "parking",
      "breakfast",
      "city-center"
    ],
    "hotelCheckIn": "14:00",
    "hotelCheckOut": "12:00"
  },
  {
    "hotelLocation": {
      "lat": 42.461,
      "long": 59.609
    },
    "hotelPrice": 0,
    "hotelToCity": "Nukus",
    "hotelName": "Tashkent Hotel Nukus",
    "hotelRating": 3,
    "hotelFeatures": [
      "classic",
      "budget",
      "central"
    ],
    "hotelCheckIn": "14:00",
    "hotelCheckOut": "12:00"
  },
  {
    "hotelLocation": {
      "lat": 42.455,
      "long": 59.615
    },
    "hotelPrice": 0,
    "hotelToCity": "Nukus",
    "hotelName": "Nukus Hotel",
    "hotelRating": 3.1,
    "hotelFeatures": [
      "standard",
      "wifi",
      "restaurant"
    ],
    "hotelCheckIn": "14:00",
    "hotelCheckOut": "12:00"
  },
  {
    "hotelLocation": {
      "lat": 42.468,
      "long": 59.602
    },
    "hotelPrice": 0,
    "hotelToCity": "Nukus",
    "hotelName": "Pana Hotel",
    "hotelRating": 3.6,
    "hotelFeatures": [
      "modern",
      "clean",
      "friendly"
    ],
    "hotelCheckIn": "14:00",
    "hotelCheckOut": "12:00"
  },
  {
    "hotelLocation": {
      "lat": 42.463,
      "long": 59.608
    },
    "hotelPrice": 0,
    "hotelToCity": "Nukus",
    "hotelName": "Rahnamo Hotel",
    "hotelRating": 3.2,
    "hotelFeatures": [
      "basic",
      "parking",
      "breakfast"
    ],
    "hotelCheckIn": "14:00",
    "hotelCheckOut": "12:00"
  },
  {
    "hotelLocation": {
      "lat": 42.465,
      "long": 59.61
    },
    "hotelPrice": 0,
    "hotelToCity": "Nukus",
    "hotelName": "Aral Hotel",
    "hotelRating": 2.9,
    "hotelFeatures": [
      "budget",
      "simple",
      "central"
    ],
    "hotelCheckIn": "14:00",
    "hotelCheckOut": "12:00"
  },
  {
    "hotelLocation": {
      "lat": 42.47,
      "long": 59.6
    },
    "hotelPrice": 0,
    "hotelToCity": "Nukus",
    "hotelName": "Elite Hotel Nukus",
    "hotelRating": 3.7,
    "hotelFeatures": [
      "modern",
      "quiet",
      "wifi"
    ],
    "hotelCheckIn": "14:00",
    "hotelCheckOut": "12:00"
  },
  {
    "hotelLocation": {
      "lat": 42.458,
      "long": 59.613
    },
    "hotelPrice": 0,
    "hotelToCity": "Nukus",
    "hotelName": "Doslyk Hotel",
    "hotelRating": 3,
    "hotelFeatures": [
      "standard",
      "restaurant",
      "parking"
    ],
    "hotelCheckIn": "14:00",
    "hotelCheckOut": "12:00"
  },
  {
    "hotelLocation": {
      "lat": 42.4605,
      "long": 59.6115
    },
    "hotelPrice": 0,
    "hotelToCity": "Nukus",
    "hotelName": "Karakalpakstan Hotel",
    "hotelRating": 3.3,
    "hotelFeatures": [
      "classic",
      "spacious",
      "central"
    ],
    "hotelCheckIn": "14:00",
    "hotelCheckOut": "12:00"
  },
  {
    "hotelLocation": {
      "lat": 40.3892,
      "long": 71.7815
    },
    "hotelPrice": 0,
    "hotelToCity": "Ferghana",
    "hotelName": "Asia Fergana",
    "hotelRating": 4,
    "hotelFeatures": [
      "pool",
      "garden",
      "gym"
    ],
    "hotelCheckIn": "14:00",
    "hotelCheckOut": "12:00"
  },
  {
    "hotelLocation": {
      "lat": 40.3755,
      "long": 71.7922
    },
    "hotelPrice": 0,
    "hotelToCity": "Ferghana",
    "hotelName": "Grand Fergana",
    "hotelRating": 3.5,
    "hotelFeatures": [
      "restaurant",
      "bar",
      "central"
    ],
    "hotelCheckIn": "14:00",
    "hotelCheckOut": "12:00"
  },
  {
    "hotelLocation": {
      "lat": 40.385,
      "long": 71.785
    },
    "hotelPrice": 0,
    "hotelToCity": "Ferghana",
    "hotelName": "Taj Mahal Hotel",
    "hotelRating": 3.8,
    "hotelFeatures": [
      "banquet-hall",
      "large-rooms",
      "wifi"
    ],
    "hotelCheckIn": "14:00",
    "hotelCheckOut": "12:00"
  },
  {
    "hotelLocation": {
      "lat": 40.382,
      "long": 71.78
    },
    "hotelPrice": 0,
    "hotelToCity": "Ferghana",
    "hotelName": "Diyor Hotel",
    "hotelRating": 3.4,
    "hotelFeatures": [
      "budget",
      "friendly",
      "parking"
    ],
    "hotelCheckIn": "14:00",
    "hotelCheckOut": "12:00"
  },
  {
    "hotelLocation": {
      "lat": 40.395,
      "long": 71.775
    },
    "hotelPrice": 0,
    "hotelToCity": "Ferghana",
    "hotelName": "Club 777",
    "hotelRating": 4.1,
    "hotelFeatures": [
      "luxury-vibe",
      "pool",
      "private"
    ],
    "hotelCheckIn": "14:00",
    "hotelCheckOut": "12:00"
  },
  {
    "hotelLocation": {
      "lat": 40.38,
      "long": 71.79
    },
    "hotelPrice": 0,
    "hotelToCity": "Ferghana",
    "hotelName": "Ziyorat Hotel",
    "hotelRating": 3.2,
    "hotelFeatures": [
      "traditional",
      "breakfast",
      "clean"
    ],
    "hotelCheckIn": "14:00",
    "hotelCheckOut": "12:00"
  },
  {
    "hotelLocation": {
      "lat": 40.384,
      "long": 71.788
    },
    "hotelPrice": 0,
    "hotelToCity": "Ferghana",
    "hotelName": "Fergana Hotel",
    "hotelRating": 3,
    "hotelFeatures": [
      "standard",
      "central",
      "wifi"
    ],
    "hotelCheckIn": "14:00",
    "hotelCheckOut": "12:00"
  },
  {
    "hotelLocation": {
      "lat": 40.39,
      "long": 71.783
    },
    "hotelPrice": 0,
    "hotelToCity": "Ferghana",
    "hotelName": "Hotel Premier",
    "hotelRating": 3.9,
    "hotelFeatures": [
      "modern",
      "business",
      "comfort"
    ],
    "hotelCheckIn": "14:00",
    "hotelCheckOut": "12:00"
  },
  {
    "hotelLocation": {
      "lat": 40.392,
      "long": 71.778
    },
    "hotelPrice": 0,
    "hotelToCity": "Ferghana",
    "hotelName": "Status House",
    "hotelRating": 4.3,
    "hotelFeatures": [
      "boutique",
      "design",
      "quiet"
    ],
    "hotelCheckIn": "14:00",
    "hotelCheckOut": "12:00"
  },
  {
    "hotelLocation": {
      "lat": 40.3815,
      "long": 71.7845
    },
    "hotelPrice": 0,
    "hotelToCity": "Ferghana",
    "hotelName": "Atlas Hotel",
    "hotelRating": 3.6,
    "hotelFeatures": [
      "national-style",
      "wifi",
      "restaurant"
    ],
    "hotelCheckIn": "14:00",
    "hotelCheckOut": "12:00"
  },
  {
    "hotelLocation": {
      "lat": 39.0592,
      "long": 66.8321
    },
    "hotelPrice": 0,
    "hotelToCity": "Shahrisabs",
    "hotelName": "Kesh Palace",
    "hotelRating": 3.6,
    "hotelFeatures": [
      "traditional",
      "garden",
      "view"
    ],
    "hotelCheckIn": "14:00",
    "hotelCheckOut": "12:00"
  },
  {
    "hotelLocation": {
      "lat": 39.0611,
      "long": 66.8255
    },
    "hotelPrice": 0,
    "hotelToCity": "Shahrisabs",
    "hotelName": "Shahrisabs Star",
    "hotelRating": 3.4,
    "hotelFeatures": [
      "parking",
      "breakfast",
      "central"
    ],
    "hotelCheckIn": "14:00",
    "hotelCheckOut": "12:00"
  },
  {
    "hotelLocation": {
      "lat": 39.063,
      "long": 66.83
    },
    "hotelPrice": 0,
    "hotelToCity": "Shahrisabs",
    "hotelName": "Grand Ak Saray",
    "hotelRating": 3.7,
    "hotelFeatures": [
      "pool",
      "near-monument",
      "wifi"
    ],
    "hotelCheckIn": "14:00",
    "hotelCheckOut": "12:00"
  },
  {
    "hotelLocation": {
      "lat": 39.058,
      "long": 66.828
    },
    "hotelPrice": 0,
    "hotelToCity": "Shahrisabs",
    "hotelName": "Hotel Shahr-e-Sabz",
    "hotelRating": 3.2,
    "hotelFeatures": [
      "basic",
      "restaurant",
      "central"
    ],
    "hotelCheckIn": "14:00",
    "hotelCheckOut": "12:00"
  },
  {
    "hotelLocation": {
      "lat": 39.055,
      "long": 66.835
    },
    "hotelPrice": 0,
    "hotelToCity": "Shahrisabs",
    "hotelName": "Zafar Hotel",
    "hotelRating": 3,
    "hotelFeatures": [
      "budget",
      "friendly",
      "parking"
    ],
    "hotelCheckIn": "14:00",
    "hotelCheckOut": "12:00"
  },
  {
    "hotelLocation": {
      "lat": 39.06,
      "long": 66.827
    },
    "hotelPrice": 0,
    "hotelToCity": "Shahrisabs",
    "hotelName": "Orient Star Shahrisabs",
    "hotelRating": 3.8,
    "hotelFeatures": [
      "historic",
      "courtyard",
      "clean"
    ],
    "hotelCheckIn": "14:00",
    "hotelCheckOut": "12:00"
  },
  {
    "hotelLocation": {
      "lat": 39.057,
      "long": 66.831
    },
    "hotelPrice": 0,
    "hotelToCity": "Shahrisabs",
    "hotelName": "Nilufar Hotel",
    "hotelRating": 3.3,
    "hotelFeatures": [
      "family-run",
      "authentic",
      "wifi"
    ],
    "hotelCheckIn": "14:00",
    "hotelCheckOut": "12:00"
  },
  {
    "hotelLocation": {
      "lat": 39.053,
      "long": 66.833
    },
    "hotelPrice": 0,
    "hotelToCity": "Shahrisabs",
    "hotelName": "Lola Hotel",
    "hotelRating": 3.1,
    "hotelFeatures": [
      "simple",
      "breakfast",
      "quiet"
    ],
    "hotelCheckIn": "14:00",
    "hotelCheckOut": "12:00"
  },
  {
    "hotelLocation": {
      "lat": 39.062,
      "long": 66.829
    },
    "hotelPrice": 0,
    "hotelToCity": "Shahrisabs",
    "hotelName": "Bek Hotel",
    "hotelRating": 3.5,
    "hotelFeatures": [
      "modern-style",
      "parking",
      "restaurant"
    ],
    "hotelCheckIn": "14:00",
    "hotelCheckOut": "12:00"
  },
  {
    "hotelLocation": {
      "lat": 39.059,
      "long": 66.826
    },
    "hotelPrice": 0,
    "hotelToCity": "Shahrisabs",
    "hotelName": "Chorsu Hotel",
    "hotelRating": 3,
    "hotelFeatures": [
      "market-nearby",
      "budget",
      "central"
    ],
    "hotelCheckIn": "14:00",
    "hotelCheckOut": "12:00"
  },
  {
    "hotelLocation": {
      "lat": 41.330269,
      "long": 69.279699
    },
    "hotelPrice": 0,
    "hotelToCity": "Tashkent",
    "hotelName": "Guest hotel",
    "hotelRating": 0,
    "hotelFeatures": []
  },
  {
    "hotelLocation": {
      "lat": 41.330269,
      "long": 69.279699
    },
    "hotelPrice": 0,
    "hotelToCity": "Tashkent",
    "hotelName": "Old Cıty",
    "hotelRating": 0,
    "hotelFeatures": []
  },
  {
    "hotelLocation": {
      "lat": 41.330269,
      "long": 69.279699
    },
    "hotelPrice": 0,
    "hotelToCity": "Tashkent",
    "hotelName": "Частный клуб Андижан",
    "hotelRating": 0,
    "hotelFeatures": []
  },
  {
    "hotelLocation": {
      "lat": 41.330269,
      "long": 69.279699
    },
    "hotelPrice": 0,
    "hotelToCity": "Tashkent",
    "hotelName": "U-Tower NRG Premium 2-Room Apartment",
    "hotelRating": 0,
    "hotelFeatures": []
  },
  {
    "hotelLocation": {
      "lat": 41.330269,
      "long": 69.279699
    },
    "hotelPrice": 0,
    "hotelToCity": "Tashkent",
    "hotelName": "BOULEVARD Apartment 777",
    "hotelRating": 0,
    "hotelFeatures": []
  },
  {
    "hotelLocation": {
      "lat": 41.330269,
      "long": 69.279699
    },
    "hotelPrice": 0,
    "hotelToCity": "Tashkent",
    "hotelName": "Chaqar 358",
    "hotelRating": 0,
    "hotelFeatures": []
  },
  {
    "hotelLocation": {
      "lat": 41.330269,
      "long": 69.279699
    },
    "hotelPrice": 0,
    "hotelToCity": "Tashkent",
    "hotelName": "Nest One Apartment Tashkent City View on the 23rd floor",
    "hotelRating": 0,
    "hotelFeatures": []
  },
  {
    "hotelLocation": {
      "lat": 41.330269,
      "long": 69.279699
    },
    "hotelPrice": 0,
    "hotelToCity": "Tashkent",
    "hotelName": "Elegant 1BR Prime C4 Center Alay Bazaar",
    "hotelRating": 0,
    "hotelFeatures": []
  },
  {
    "hotelLocation": {
      "lat": 41.330269,
      "long": 69.279699
    },
    "hotelPrice": 0,
    "hotelToCity": "Tashkent",
    "hotelName": "Art Home",
    "hotelRating": 0,
    "hotelFeatures": []
  },
  {
    "hotelLocation": {
      "lat": 41.330269,
      "long": 69.279699
    },
    "hotelPrice": 0,
    "hotelToCity": "Tashkent",
    "hotelName": "Art City Hotel",
    "hotelRating": 0,
    "hotelFeatures": []
  },
  {
    "hotelLocation": {
      "lat": 41.330269,
      "long": 69.279699
    },
    "hotelPrice": 0,
    "hotelToCity": "Tashkent",
    "hotelName": "Old Town & Skyline Vibes",
    "hotelRating": 0,
    "hotelFeatures": []
  },
  {
    "hotelLocation": {
      "lat": 41.330269,
      "long": 69.279699
    },
    "hotelPrice": 0,
    "hotelToCity": "Tashkent",
    "hotelName": "Вилла в Ташкенте",
    "hotelRating": 0,
    "hotelFeatures": []
  },
  {
    "hotelLocation": {
      "lat": 41.330269,
      "long": 69.279699
    },
    "hotelPrice": 0,
    "hotelToCity": "Tashkent",
    "hotelName": "Sayohat Hotel",
    "hotelRating": 0,
    "hotelFeatures": []
  },
  {
    "hotelLocation": {
      "lat": 41.330269,
      "long": 69.279699
    },
    "hotelPrice": 0,
    "hotelToCity": "Tashkent",
    "hotelName": "Двухкомнатная квартира с кухней в центре города",
    "hotelRating": 0,
    "hotelFeatures": []
  },
  {
    "hotelLocation": {
      "lat": 41.330269,
      "long": 69.279699
    },
    "hotelPrice": 0,
    "hotelToCity": "Tashkent",
    "hotelName": "Modern Spaces Sebzar",
    "hotelRating": 0,
    "hotelFeatures": []
  },
  {
    "hotelLocation": {
      "lat": 41.330269,
      "long": 69.279699
    },
    "hotelPrice": 0,
    "hotelToCity": "Tashkent",
    "hotelName": "Apartments Friendship RNB estate Tashkent",
    "hotelRating": 0,
    "hotelFeatures": []
  },
  {
    "hotelLocation": {
      "lat": 41.330269,
      "long": 69.279699
    },
    "hotelPrice": 0,
    "hotelToCity": "Tashkent",
    "hotelName": "Apartments Gardens D12 RNB estate Tashkent",
    "hotelRating": 0,
    "hotelFeatures": []
  },
  {
    "hotelLocation": {
      "lat": 41.330269,
      "long": 69.279699
    },
    "hotelPrice": 0,
    "hotelToCity": "Tashkent",
    "hotelName": "85 Spacious neoclassical-style apartment in AC KAZAKHSTAN, Minor area, Amir Timur Avenue",
    "hotelRating": 0,
    "hotelFeatures": []
  },
  {
    "hotelLocation": {
      "lat": 41.330269,
      "long": 69.279699
    },
    "hotelPrice": 0,
    "hotelToCity": "Tashkent",
    "hotelName": "Квартира в районе Старого города Ташкента",
    "hotelRating": 0,
    "hotelFeatures": []
  },
  {
    "hotelLocation": {
      "lat": 41.330269,
      "long": 69.279699
    },
    "hotelPrice": 0,
    "hotelToCity": "Tashkent",
    "hotelName": "Tashkent Prestige 2022",
    "hotelRating": 0,
    "hotelFeatures": []
  },
  {
    "hotelLocation": {
      "lat": 41.330269,
      "long": 69.279699
    },
    "hotelPrice": 0,
    "hotelToCity": "Tashkent",
    "hotelName": "NRG U Tower",
    "hotelRating": 0,
    "hotelFeatures": []
  },
  {
    "hotelLocation": {
      "lat": 41.330269,
      "long": 69.279699
    },
    "hotelPrice": 0,
    "hotelToCity": "Tashkent",
    "hotelName": "Best Hotel Tashkent",
    "hotelRating": 0,
    "hotelFeatures": []
  },
  {
    "hotelLocation": {
      "lat": 41.330269,
      "long": 69.279699
    },
    "hotelPrice": 0,
    "hotelToCity": "Tashkent",
    "hotelName": "Apartments Gardens E8 RNB estate Tashkent",
    "hotelRating": 0,
    "hotelFeatures": []
  },
  {
    "hotelLocation": {
      "lat": 41.330269,
      "long": 69.279699
    },
    "hotelPrice": 0,
    "hotelToCity": "Tashkent",
    "hotelName": "Nestone 007 Modern Studio in Tashkent",
    "hotelRating": 0,
    "hotelFeatures": []
  },
  {
    "hotelLocation": {
      "lat": 41.330269,
      "long": 69.279699
    },
    "hotelPrice": 0,
    "hotelToCity": "Tashkent",
    "hotelName": "Boulevard 2BR Luxury Apartment",
    "hotelRating": 0,
    "hotelFeatures": []
  },
  {
    "hotelLocation": {
      "lat": 41.330269,
      "long": 69.279699
    },
    "hotelPrice": 0,
    "hotelToCity": "Tashkent",
    "hotelName": "-Daniels Suit -Close to Magic City and Chorsu Bazar",
    "hotelRating": 0,
    "hotelFeatures": []
  }
]